Id, Name, Lat, Long, Betweenness, Closeness, Katz, Pagerank
1, Figueres, 0.23291499208336208, 0.9166666666666666, 0.0, 0.09480122324159021, 0.08565977591665896,0.006499359890946237
2, Girona, 0.2701565165659664, 0.910734667191589, 0.021505376344086023, 0.1046119235095613, 0.09440637229682754,0.011534103011820925
3, Barcelona, 0.34408233957514756, 0.8537735328719466, 0.04254324450677887, 0.11639549436795996, 0.09621256370432175,0.010392972067910101
4, Tarragona, 0.36588944082354513, 0.7937392546178873, 0.0685250116877045, 0.1308016877637131, 0.10552788659236262,0.013737596224650053
5, Lleida, 0.3106758639497884, 0.7537163801633684, 0.04882733364500544, 0.1411229135053111, 0.09943746558100906,0.009076396126378531
6, Zaragoza, 0.3037451826390437, 0.6450828781129823, 0.22406727408480587, 0.1611785095320624, 0.12665541508789682,0.021095019768810196
7, Tardienta, 0.2678341986203493, 0.6700971746470565, 0.021505376344086023, 0.13943028485757122, 0.09748140524917974,0.01023770306703946
8, Huesca, 0.25272314298779597, 0.678673507275005, 0.0, 0.1225296442687747, 0.08596727815717374,0.0059458447689644985
9, Calatayud, 0.3406333705188812, 0.5914808234234019, 0.12810308555399708, 0.16258741258741258, 0.09939710183764648,0.00910702618495535
10, Alcolea del Pinar, 0.3761969317800058, 0.532161209748622, 0.1503330995792427, 0.170018281535649, 0.1051242817622356,0.013847702211381633
11, Soria, 0.2914856624204005, 0.5317323855959878, 0.0, 0.14553990610328638, 0.08673156288386714,0.00551998691639175
12, Guadalajara, 0.42183808301316794, 0.4814179203448607, 0.154564048620851, 0.18562874251497005, 0.10292293329565717,0.008686151251655864
13, Castejon, 0.2457380417830265, 0.5907661270877893, 0.15202231538136204, 0.15196078431372548, 0.10849664880049002,0.01300159183323199
14, Pamplona Iruna, 0.17199243255565433, 0.5917666939349944, 0.048172822191055, 0.1336206896551724, 0.09760202342464874,0.009302213886092326
15, Alsasua, 0.16139627165193193, 0.5528873332831784, 0.050685678666043316, 0.12722298221614228, 0.10533222066172156,0.014200067382757454
16, Donostia San Sebastian, 0.11174222210635476, 0.5671812232249402, 0.021505376344086023, 0.11327649208282582, 0.09532754951825326,0.010920309038575125
17, Irun, 0.10616455144838965, 0.5807604084741594, 0.0, 0.10186199342825848, 0.0857518935148921,0.0062369763959747564
18, Vitoria Gasteiz, 0.1661075609599122, 0.5171526284854054, 0.022148200093501637, 0.12156862745098039, 0.09820126200577262,0.009433296774305374
19, Logrono, 0.20977776427964645, 0.5335905940629175, 0.08160389555901469, 0.14285714285714285, 0.09851770373176606,0.009093387084739916
20, Miranda de Ebro, 0.1849223514346584, 0.4978558875937587, 0.12210179177219851, 0.13656387665198239, 0.11448902735650503,0.017950754660221065
21, Bilbao, 0.11411462501064751, 0.4957118102866225, 0.0, 0.1203104786545925, 0.08766804057622843,0.005410107326902015
22, Burgos, 0.22474330580384883, 0.4442538295614063, 0.11142312572887625, 0.14307692307692307, 0.09831190572164063,0.009133588970131355
23, Venta de Banos, 0.2734777231448049, 0.38675381868068376, 0.20805133000083947, 0.15245901639344261, 0.10643866352022142,0.013142004842154616
24, Palencia, 0.2624134699860019, 0.3839813370235931, 0.1511166253101733, 0.13818722139673106, 0.10627204850375463,0.013876582019655585
25, Santander, 0.09511490825334445, 0.434962815640319, 0.0, 0.12156862745098039, 0.08684634280554124,0.005527513952254117
26, Leon, 0.19677449272190795, 0.3092552753436883, 0.12329988851727991, 0.12601626016260162, 0.1072441151178982,0.01362030767664917
27, Oviedo, 0.10580846891545259, 0.2898799091137755, 0.021505376344086023, 0.11231884057971014, 0.09552066978194342,0.01066325452918553
28, Guijon, 0.08333333333333315, 0.3035305778690595, 0.0, 0.10108695652173913, 0.08577120539262617,0.006127694069914912
29, Ponferrada, 0.19818075221025766, 0.23484846509574167, 0.08335011567830641, 0.11538461538461539, 0.10845707110617336,0.01256755421866109
30, Lugo, 0.14488291390097985, 0.1669525054219259, 0.027701058486472235, 0.10426008968609865, 0.09771476183391456,0.008661180804525147
31, Betanzos, 0.1153000390269362, 0.11978275118057843, 0.011430575035063114, 0.09528688524590163, 0.1064991840303197,0.01236910862484159
32, Ferrol, 0.08916694083567966, 0.12049738567491064, 0.0, 0.09207920792079208, 0.0976160244564465,0.008556300984406908
33, A Coruna, 0.10580846891545259, 0.10763294523149673, 0.017974490835640906, 0.09789473684210526, 0.10746969663629806,0.012197569194524211
34, Santiago de Compostela, 0.1661075609599122, 0.09905656246196967, 0.045035422735282486, 0.1076388888888889, 0.10839040484561573,0.01221454984744689
35, Pontevedra, 0.21539367605336246, 0.08976559533968927, 0.00042854916627707655, 0.09748427672955975, 0.09682252054018364,0.008778975609412688
36, Vigo, 0.2387462372781357, 0.08333333333333331, 0.010246220975533737, 0.10689655172413794, 0.09764343646378604,0.008758585332233925
37, Ourense, 0.22474330580384883, 0.14551169892284457, 0.11370338403998975, 0.11923076923076924, 0.1174204809769598,0.016149804885998004
38, A Guidina, 0.2585385990840916, 0.19768437932644525, 0.09588353052588659, 0.12317880794701987, 0.09752255565423767,0.008964608298803285
39, Puebla de Sanabria, 0.2585385990840916, 0.23484846509574167, 0.10741539900025154, 0.13247863247863248, 0.09561371111345654,0.00926375249838511
40, Zamora, 0.32105946562955145, 0.2970268473991125, 0.12237566080483314, 0.14576802507836992, 0.0964231889620664,0.009077641408504328
41, Medina del Campo, 0.34523186872605927, 0.3577758437168019, 0.1417772503326501, 0.1628721541155867, 0.10642683279417973,0.012511296460263392
42, Olmedo, 0.34753013757295903, 0.3734991330153327, 0.14937871073915965, 0.16548042704626334, 0.10748327110120669,0.012223132095370614
43, Valladolid, 0.3060560726693943, 0.36992564966588365, 0.13675598984154383, 0.15736040609137056, 0.0976113261843388,0.008782346093597555
44, Segovia, 0.3864902266813005, 0.41423667204913117, 0.07336474885563245, 0.18562874251497005, 0.10327083085102623,0.008111873095459004
45, Avila, 0.4184245990471509, 0.37278441829447456, 0.22234941698476063, 0.1901840490797546, 0.1130878850098682,0.011706282229074248
46, Salamanca, 0.383631985948203, 0.30488849539114987, 0.13698529147337, 0.1725417439703154, 0.09817059100601293,0.008457095488970062
47, Teruel, 0.4558897153357995, 0.6293596155566268, 0.04684076637092067, 0.14645669291338584, 0.09955022906240814,0.008801916441679117
48, Sagunto, 0.5313972744817825, 0.6872498399029532, 0.09949192734957109, 0.15220949263502456, 0.1066555309193405,0.012769834542561078
49, Catello de la Plana, 0.5044348528834395, 0.7051171897947608, 0.03863175938912265, 0.1341991341991342, 0.09743747789629159,0.009108489350079383
50, Valencia, 0.554912693594437, 0.6829616652320493, 0.10897313882938002, 0.15924657534246575, 0.10737628154480174,0.012582726942704053
51, Utiel-Requena, 0.543723831739769, 0.6229988220138619, 0.06821192676732649, 0.170018281535649, 0.09840027757351172,0.00846736852076774
52, Cuenca, 0.4931726423881696, 0.5551028957677653, 0.13610438961070095, 0.18562874251497005, 0.11443532245288368,0.011674703071142446
53, Madrid, 0.4479581763983763, 0.4442538295614063, 0.5205193707648126, 0.20620842572062084, 0.16191399510626162,0.02979559939327295
54, Toledo, 0.5089351618773081, 0.4220983133556247, 0.0, 0.1712707182320442, 0.09241050925135698,0.004761909016115177
55, Alcazar de San Juan, 0.5616185962919653, 0.4792738396949525, 0.3260660642147318, 0.19254658385093168, 0.11655441083224125,0.011457748709152723
56, Albacete, 0.6050651940760046, 0.5757575491673447, 0.19974394080284677, 0.17448405253283303, 0.12184803352433832,0.015590965348204458
57, Villena, 0.6460632842896474, 0.6465122808125233, 0.025712949976624593, 0.14069591527987896, 0.09663433332397556,0.009309144386151316
58, La Encina, 0.6309447379211155, 0.6399013476471898, 0.08850621289260846, 0.16202090592334495, 0.10871892996897416,0.012634576373453176
59, Alzira, 0.5894966987821775, 0.6772441045754639, 0.06091047218326321, 0.15097402597402598, 0.10651571918224992,0.01329823508513652
60, Gandia, 0.6460632842896474, 0.6951114711811309, 0.0, 0.13135593220338984, 0.08687070782605323,0.005364286770983227
61, Alicante, 0.6769486790254684, 0.674385332604101, 0.006077606358111267, 0.12483221476510067, 0.09543309100850453,0.009727990910667422
62, Elche, 0.686850402265444, 0.6579473686979749, 0.001402524544179523, 0.12156862745098039, 0.09550521812691608,0.009824277153217984
63, Orihuela, 0.7066171219293707, 0.6407947201559379, 0.016362786348761104, 0.1326676176890157, 0.09742773222733819,0.009633767905704858
64, Murcia, 0.7164825625479079, 0.6272155282211748, 0.09817671809256663, 0.15146579804560262, 0.1165807945340996,0.018177928524502958
65, Cartagena, 0.7590935233045357, 0.6379359314707154, 0.0, 0.13172804532577903, 0.08787721144948146,0.005458324902787554
66, Lorca, 0.7525528589740579, 0.5871926537666557, 0.021505376344086023, 0.13210227272727273, 0.09646376205310779,0.010668779543198089
67, Aguilas, 0.7808584321244303, 0.5943395920519928, 0.0, 0.11683417085427136, 0.08586551314476508,0.00613021654956792
68, Linares-Baeza, 0.7263357676246578, 0.4599771021460776, 0.26749259778712803, 0.17350746268656717, 0.11959122553476088,0.015916178531339142
69, Jaen, 0.7481889904045812, 0.4378215892830679, 0.0, 0.1480891719745223, 0.08817824966861113,0.004978097998317714
70, Guadix, 0.7928044398040378, 0.4842766956589955, 0.08914601838865514, 0.15196078431372548, 0.10778336606314283,0.012818226858445149
71, Almeria, 0.845807696339923, 0.532161209748622, 0.0, 0.13210227272727273, 0.08699746830001683,0.0052274439292847585
72, Trujillo, 0.5537947143735529, 0.2877358134213937, 0.06494857410004677, 0.17748091603053434, 0.11104343391124519,0.012956457500524406
73, Plasencia, 0.48979110005104265, 0.27344195356457923, 0.0, 0.15097402597402598, 0.08732346779748472,0.005266390066630862
74, Caceres, 0.5537947143735529, 0.2527158317014088, 0.03214508337229235, 0.15897435897435896, 0.09900587186252688,0.008747061718704206
75, Merida, 0.6161665051777057, 0.25128644571572734, 0.053545270375564925, 0.14599686028257458, 0.1168241235654117,0.016380545738685543
76, Badajoz, 0.619494421113864, 0.20983418527552694, 0.0, 0.12757201646090535, 0.08790154290460908,0.005076416332924406
77, Sevilla, 0.7841185175281888, 0.2863064341212561, 0.0975611656537323, 0.1409090909090909, 0.1306353358932204,0.01903795310298356
78, Huelva, 0.7949745524555807, 0.21483702786848222, 0.0, 0.125, 0.10038298510346964,0.008171549175304755
79, Almendralejo, 0.640535302853363, 0.25057171093823766, 0.023157238585008566, 0.13636363636363635, 0.11100335397480032,0.011785724379492706
80, Cadiz, 0.8780910723922574, 0.2584333756441346, 0.0, 0.12367021276595745, 0.08928265857899492,0.004832188284575422
81, Ciudad Real, 0.6161665051777057, 0.42924524829818983, 0.05559841047218327, 0.1785028790786948, 0.1032244340908746,0.008174441013745568
82, Puertollano, 0.640535302853363, 0.41495138175583146, 0.04578073866292659, 0.1617391304347826, 0.10813932421225916,0.012043567653439047
83, Villanueva de Cordoba - Los Pedroches, 0.6824510385103865, 0.3792166786294445, 0.006264609630668537, 0.1497584541062802, 0.09915357885362587,0.008219773066653495
84, Cordoba, 0.737270263468527, 0.3720697436868794, 0.14358734611189025, 0.15604026845637584, 0.12120527951849143,0.015113088810341554
85, Puente Genil-Herrera, 0.7852372821658644, 0.3633432972004425, 0.023390992675705158, 0.13798219584569732, 0.100481658988642,0.008012241731842713
86, La Roda, 0.8036494304387602, 0.3670668726803628, 0.03223468910705938, 0.12550607287449392, 0.12142016735985298,0.015082544132302962
87, Campillos, 0.8242151350195266, 0.36492277364520914, 0.04688327879071216, 0.12653061224489795, 0.12228814971006752,0.01558178744203387
88, Algeciras, 0.9166666666666666, 0.318467687325913, 0.0, 0.1124546553808948, 0.08844794139159488,0.0049068736667939325
89, Antequera, 0.8242151350195266, 0.38636361357200966, 0.045254791958859286, 0.11397058823529412, 0.12018706056838002,0.01587642022514456
90, Malaga, 0.8565824840393415, 0.3935105468431888, 0.021505376344086023, 0.10264900662251655, 0.09682802738470256,0.009903544960032798
91, Fuengirola, 0.8780910723922574, 0.3792166786294445, 0.0, 0.09318637274549098, 0.0859019380011721,0.0058047189375445216
92, Loja, 0.8133973412078856, 0.41495138175583146, 0.013323983169705471, 0.1225296442687747, 0.09914320623347525,0.008366182974286866
93, Granada, 0.8058167769694702, 0.45068608738929733, 0.05401277855695808, 0.13636363636363635, 0.1090537883151968,0.011988016230941931
94, Coca, 0.3567149105599259, 0.38636361357200966, 0.14279463718453905, 0.1751412429378531, 0.10860330228186436,0.011822606992505322
